{
  "type": "FeatureCollection",
  "features": [
    {
      "type": "Feature",
      "geometry": { "type": "Point", "coordinates": [144.9631, -37.8136] },
      "properties": {
        "name": "Pellegrini\u2019s Espresso Bar",
        "category": "cafe",
        "description": "Melbourne\u2019s oldest Italian caf\u00e9. Est. 1954.",
        "cta": "See specials",
        "cta_url": "https://example.com/pellegrinis"
      }
    },
    {
      "type": "Feature",
      "geometry": { "type": "Point", "coordinates": [144.9627, -37.8170] },
      "properties": {
        "name": "Flinders Lane Gallery",
        "category": "attraction",
        "description": "Contemporary Australian art. Free entry weekdays.",
        "cta": "What's on",
        "cta_url": "https://example.com/flg"
      }
    },
    {
      "type": "Feature",
      "geometry": { "type": "Point", "coordinates": [144.9700, -37.8180] },
      "properties": {
        "name": "Rice Workshop",
        "category": "restaurant",
        "description": "Build-your-own Japanese rice bowls from $12.",
        "cta": "Order now",
        "cta_url": "https://example.com/riceworkshop"
      }
    },
    {
      "type": "Feature",
      "geometry": { "type": "Point", "coordinates": [144.9580, -37.8200] },
      "properties": {
        "name": "Rooftop Bar",
        "category": "bar",
        "description": "CBD skyline views. Happy hour 5\u20137 pm daily.",
        "cta": "Reserve a spot",
        "cta_url": "https://example.com/rooftopbar"
      }
    },
    {
      "type": "Feature",
      "geometry": { "type": "Point", "coordinates": [144.9650, -37.8090] },
      "properties": {
        "name": "Melbourne Central",
        "category": "shop",
        "description": "Flagship stores, food court & direct train access.",
        "cta": "Explore",
        "cta_url": "https://example.com/melbournecentral"
      }
    },
    {
      "type": "Feature",
      "geometry": { "type": "Point", "coordinates": [144.9671, -37.8183] },
      "properties": {
        "name": "Flinders Street Station",
        "category": "transit",
        "description": "Main rail hub. 15 lines. Live departures below.",
        "cta": "Live departures",
        "cta_url": "https://example.com/ptv"
      }
    }
  ]
}
